{
    "type": "FeatureCollection",
    "features": [{
        "type": "Feature",
        "id": 0,
        "geometry": {
            "type": "Point",
            "coordinates": [174.597, -36.6334]
        },
        "properties": {
            "name": "Auckland",
            "num": "178"
        }
    }, {
        "type": "Feature",
        "id": 1,
        "geometry": {
            "type": "Point",
            "coordinates": [176.806, -38.149]
        },
        "properties": {
            "name": "Bay of Plenty",
            "num": "47"
        }
    }, {
        "type": "Feature",
        "id": 2,
        "geometry": {
            "type": "Point",
            "coordinates": [172.459, -43.513]
        },
        "properties": {
            "name": "Canterbury",
            "num": "164"
        }
    }, {
        "type": "Feature",
        "id": 3,
        "geometry": {
            "type": "Point",
            "coordinates": [174.622, -41.244]
        },
        "properties": {
            "name": "Capital and Coast",
            "num": "95"
        }
    }, {
        "type": "Feature",
        "id": 4,
        "geometry": {
            "type": "Point",
            "coordinates": [174.867, -36.989]
        },
        "properties": {
            "name": "Counties Manukau",
            "num": "131"
        }
    }, {
        "type": "Feature",
        "id": 5,
        "geometry": {
            "type": "Point",
            "coordinates": [176.784, -39.637]
        },
        "properties": {
            "name": "Hawke's Bay",
            "num": "44"
        }
    }, {
        "type": "Feature",
        "id": 6,
        "geometry": {
            "type": "Point",
            "coordinates": [174.999, -41.088]
        },
        "properties": {
            "name": "Hutt Valley",
            "num": "20"
        }
    }, {
        "type": "Feature",
        "id": 7,
        "geometry": {
            "type": "Point",
            "coordinates": [175.946, -38.707]
        },
        "properties": {
            "name": "Lakes",
            "num": "16"
        }
    }, {
        "type": "Feature",
        "id": 8,
        "geometry": {
            "type": "Point",
            "coordinates": [173.474, -41.378]
        },
        "properties": {
            "name": "Nelson Marlborough",
            "num": "49"
        }
    }, {
        "type": "Feature",
        "id": 9,
        "geometry": {
            "type": "Point",
            "coordinates": [174.218, -35.712]
        },
        "properties": {
            "name": "Northland",
            "num": "28"
        }
    }, {
        "type": "Feature",
        "id": 10,
        "geometry": {
            "type": "Point",
            "coordinates": [171.189, -44.379]
        },
        "properties": {
            "name": "South Canterbury",
            "num": "17"
        }
    }, {
        "type": "Feature",
        "id": 11,
        "geometry": {
            "type": "Point",
            "coordinates": [170.457, -45.873]
        },
        "properties": {
            "name": "Southern",
            "num": "216"
        }
    }, {
        "type": "Feature",
        "id": 12,
        "geometry": {
            "type": "Point",
            "coordinates": [174.436, -39.358]
        },
        "properties": {
            "name": "Taranaki",
            "num": "16"
        }
    }, {
        "type": "Feature",
        "id": 13,
        "geometry": {
            "type": "Point",
            "coordinates": [175.495, -38.014]
        },
        "properties": {
            "name": "Waikato",
            "num": "188"
        }
    }, {
        "type": "Feature",
        "id": 14,
        "geometry": {
            "type": "Point",
            "coordinates": [175.16, -41.259]
        },
        "properties": {
            "name": "Wairarapa",
            "num": "8"
        }
    }, {
        "type": "Feature",
        "id": 15,
        "geometry": {
            "type": "Point",
            "coordinates": [174.714, -36.782]
        },
        "properties": {
            "name": "Waitemata",
            "num": "237"
        }
    }, {
        "type": "Feature",
        "id": 16,
        "geometry": {
            "type": "Point",
            "coordinates": [171.859, -41.888]
        },
        "properties": {
            "name": "West Coast",
            "num": "5"
        }
    }, {
        "type": "Feature",
        "id": 17,
        "geometry": {
            "type": "Point",
            "coordinates": [175.031, -39.926]
        },
        "properties": {
            "name": "Whanganui",
            "num": "9"
        }
    }],
    "caption": "Last updated 1.00 pm, 08\u00a0Jun 2020."
}